LGSA,A,3,83,68,,,,,,,,,,,2.43,1.85,1.57*11
$GPGSV,4,1,15,27,68,231,28,20,65,103,18,10,62,175,28,08,46,293,*7D
$GPGSV,4,2,15,21,38,100,24,15,28,054,17,16,16,213,22,13,12,020,*7E
$GPGSV,4,3,15,18,11,270,16,41,09,123,28,30,08,332,15,32,03,159,22*75
$GPGSV,4,4,15,11,02,287,,28,01,350,,07,01,305,*4F
$GLGSV,3,1,09,84,68,305,,68,64,116,21,83,50,117,30,67,31,037,18*67
$GLGSV,3,2,09,75,26,315,,76,18,003,,85,13,301,,74,10,263,14*6A
$GLGSV,3,3,09,82,01,120,22*54
$GNRMC,115351.000,A,5958.199343,N,03021.477868,E,0.00,318.08,170818,,,A*71
$GNVTG,318.08,T,,M,0.00,N,0.00,K,A*21
$GNZDA,115351.000,17,08,2018,,*4F
$GNGGA,115352.000,5958.199343,N,03021.477868,E,1,8,1.85,-0.434,M,17.985,M,,*6D
$GNGLL,5958.199343,N,03021.477868,E,115352.000,A,A*40
$GNRMC,115352.000,A,5958.199343,N,03021.477868,E,0.00,318.08,170818,,,A*72
$GNVTG,318.08,T,,M,0.00,N,0.00,K,A*21
$GNZDA,115352.000,17,08,2018,,*4C
$GNGGA,115353.000,5958.199343,N,03021.477868,E,1,8,1.85,-0.434,M,17.985,M,,*6C
$GNGLL,5958.199343,N,03021.477868,E,115353.000,A,A*41
$GPGSA,A,3,10,20,16,27,15,21,,,,,,,2.03,1.85,0.84*05
$GLGSA,A,3,83,68,,,,,,,,,,,2.03,1.85,0.84*1A
$GNRMC,115353.000,A,5958.199343,N,03021.477868,E,0.00,318.08,170818,,,A*73
$GNVTG,318.08,T,,M,0.00,N,0.00,K,A*21
$GNZDA,115353.000,17,08,2018,,*4D
$GNGGA,115354.000,5958.199343,N,03021.477868,E,1,8,1.85,-0.434,M,17.985,M,,*6B
$GNGLL,5958.199343,N,03021.477868,E,115354.000,A,A*46
$GNRMC,115354.000,A,5958.199343,N,03021.477868,E,0.00,318.08,170818,,,A*74
$GNVTG,318.08,T,,M,0.00,N,0.00,K,A*21
$GNZDA,115354.000,17,08,2018,,*4A
$GNGGA,115355.000,5958.199343,N,03021.477868,E,1,8,1.85,-0.434,M,17.985,M,,*6A
$GNGLL,5958.199343,N,03021.477868,E,115355.000,A,A*47
$GPGSA,A,3,10,20,16,27,15,21,,,,,,,2.03,1.85,0.84*05
$GLGSA,A,3,83,68,,,,,,,,,,,2.03,1.85,0.84*1A
$GNRMC,115355.000,A,5958.199343,N,03021.477868,E,0.00,318.08,170818,,,A*75
$GNVTG,318.08,T,,M,0.00,N,0.00,K,A*21
$GNZDA,115355.000,17,08,2018,,*4B
$GNGGA,115356.000,5958.199343,N,03021.477868,E,1,8,1.85,-0.434,M,17.985,M,,*69
$GNGLL,5958.199343,N,03021.477868,E,115356.000,A,A*44
$GPGSV,4,1,15,27,68,231,28,20,65,103,20,10,62,175,27,08,46,293,*79
$GPGSV,4,2,15,21,38,100,23,15,28,054,16,16,16,213,22,13,12,020,*78
$GPGSV,4,3,15,18,11,270,17,41,09,123,28,30,08,332,15,32,03,159,23*75
$GPGSV,4,4,15,11,02,287,,28,01,350,,07,01,305,15*4B
$GLGSV,3,1,09,84,68,305,,68,64,116,25,83,50,117,31,67,31,037,16*6C
$GLGSV,3,2,09,75,26,315,,76,18,003,,85,13,301,,74,10,263,17*69
$GLGSV,3,3,09,82,01,120,19*5C
$GNRMC,115356.000,A,5958.199343,N,03021.477868,E,0.00,318.08,170818,,,A*76
$GNVTG,318.08,T,,M,0.00,N,0.00,K,A*21
$GNZDA,115356.000,17,08,2018,,*48
$GNGGA,115357.000,5958.204739,N,03021.479060,E,1,8,1.85,-0.893,M,17.985,M,,*69
$GNGLL,5958.204739,N,03021.479060,E,115357.000,A,A*45
$GPGSA,A,3,10,20,16,27,15,21,,,,,,,2.43,1.85,1.57*0E
$GLGSA,A,3,83,68,,,,,,,,,,,2.43,1.85,1.57*11
$GNRMC,115357.000,A,5958.204739,N,03021.479060,E,0.92,357.65,170818,,,A*7C
$GNVTG,357.65,T,,M,0.92,N,1.70,K,A*2C
$GNZDA,115357.000,17,08,2018,,*49
$GNGGA,115358.000,5958.205340,N,03021.478881,E,1,8,1.85,-0.964,M,17.985,M,,*62
$GNGLL,5958.205340,N,03021.478881,E,115358.000,A,A*47
$GNRMC,115358.000,A,5958.205340,N,03021.478881,E,0.00,353.25,170818,,,A*75
$GNVTG,353.25,T,,M,0.00,N,0.00,K,A*21
$GNZDA,115358.000,17,08,2018,,*46
$GNGGA,115359.000,5958.205832,N,03021.478751,E,1,8,1.85,-1.033,M,17.985,M,,*65
$GNGLL,5958.205832,N,03021.478751,E,115359.000,A,A*4A
$GPGSA,A,3,10,20,16,27,15,21,,,,,,,2.43,1.85,1.57*0E
$GLGSA,A,3,83,68,,,,,,,,,,,2.43,1.85,1.57*11
$GNRMC,115359.000,A,5958.205832,N,03021.478751,E,0.00,324.85,170818,,,A*72
$GNVTG,324.85,T,,M,0.00,N,0.00,K,A*2B
$GNZDA,115359.000,17,08,2018,,*47
$GNGGA,115400.000,5958.205951,N,03021.478881,E,1,8,1.85,-1.057,M,17.985,M,,*6A
$GNGLL,5958.205951,N,03021.478881,E,115400.000,A,A*47
$GNRMC,115400.000,A,5958.205951,N,03021.478881,E,0.00,341.51,170818,,,A*75
$GNVTG,341.51,T,,M,0.00,N,0.00,K,A*21
$GNZDA,115400.000,17,08,2018,,*4C
$GNGGA,115401.000,5958.205951,N,03021.478881,E,2,8,1.85,-1.057,M,17.985,M,,*68
$GNGLL,5958.205951,N,03021.478881,E,115401.000,A,D*43
$GPGSA,A,3,10,20,16,27,15,21,,,,,,,2.03,1.85,0.84*05
$GLGSA,A,3,83,68,,,,,,,,,,,2.03,1.85,0.84*1A
$GPGSV,4,1,15,27,68,231,28,20,65,103,21,10,62,175,25,08,46,293,*7A
$GPGSV,4,2,15,21,38,100,24,15,28,054,16,16,16,213,24,13,12,020,*79
$GPGSV,4,3,15,18,11,270,18,41,09,123,28,30,08,332,15,32,03,159,22*7B
$GPGSV,4,4,15,11,02,287,,28,01,350,,07,01,305,13*4D
$GLGSV,3,1,09,84,68,305,,68,64,114,23,83,50,117,30,67,31,037,17*68
$GLGSV,3,2,09,75,26,315,,76,18,003,,85,13,301,,74,10,263,17*69
$GLGSV,3,3,09,82,01,120,18*5D
$GNRMC,115401.000,A,5958.205951,N,03021.478881,E,0.00,341.51,170818,,,D*71
$GNVTG,341.51,T,,M,0.00,N,0.00,K,D*24
$GNZDA,115401.000,17,08,2018,,*4D
$GNGGA,115402.000,5958.205951,N,03021.478881,E,2,8,1.85,-1.057,M,17.985,M,,*6B
$GNGLL,5958.205951,N,03021.478881,E,115402.000,A,D*40
$GNRMC,115402.000,A,5958.205951,N,03021.478881,E,0.00,341.51,170818,,,D*72
$GNVTG,341.51,T,,M,0.00,N,0.00,K,D*24
$GNZDA,115402.000,17,08,2018,,*4E
$GNGGA,115403.000,5958.205951,N,03021.478881,E,2,8,1.85,-1.057,M,17.985,M,,*6A
$GNGLL,5958.205951,N,03021.478881,E,115403.000,A,D*41
$GPGSA,A,3,10,20,16,27,15,21,,,,,,,2.03,1.85,0.84*05
$GLGSA,A,3,83,68,,,,,,,,,,,2.03,1.85,0.84*1A
$GNRMC,115403.000,A,5958.205951,N,03021.478881,E,0.00,341.51,170818,,,D*73
$GNVTG,341.51,T,,M,0.00,N,0.00,K,D*24
$GNZDA,115403.000,17,08,2018,,*4F
$GNGGA,115404.000,5958.205951,N,03021.478881,E,2,8,1.85,-1.057,M,17.985,M,,*6D
$GNGLL,5958.205951,N,03021.478881,E,115404.000,A,D*46
$GNRMC,115404.000,A,5958.205951,N,03021.478881,E,0.00,341.51,170818,,,D*74
$GNVTG,341.51,T,,M,0.00,N,0.00,K,D*24
$GNZDA,115404.000,17,08,2018,,*48
